업체구분,업체명,지번 주소,도로명 주소,위도,경도,연락처
식음료,103번길,강원 양양군 현남면 시변리 9-2 d동,강원 양양군 현남면 인구중앙길 103,37.973863,128.758898,
식음료,1938슬로우,강원 강릉시 용강동 43-1,강원 강릉시 임영로141번길 4-6,37.75394842,128.8910696,033-646-4649
동물병원,24시보듬동물병원,강원 강릉시 임당동 134-6,강원 강릉시 경강로 2070,37.75320476,128.8940373,033-655-7975
숙박지,365행복펜션,,강원 정선군 북평면 장열길 83-2,37.456503,128.683384,0507-1423-1365
식음료,5구도선장,강원 속초시 중앙동 482-17,강원 속초시 중앙부두길 51,38.20282081,128.5921603,033-636-5950
식음료,Cafe COEL,,강원 속초시 장사항해안길 25,38.22392,128.589026,0507-1344-4321
관광지,DMZ박물관,강원 고성군 현내면 송현리 212,강원 고성군 현내면 통일전망대로 369,38.57624688,128.3825278,033-681-0625
숙박지,EST펜션,강원 속초시 영랑동 147-3,강원 속초시 영랑해안길 159,38.21650162,128.5953542,033-633-2345
숙박지,hj매그놀리아용평호텔앤리조트,,강원 평창군 대관령면 올림픽로 715,37.645742,128.680769,033-330-7511
식음료,J카페,강원 동해시 천곡동 522,강원 동해시 항골길 94,37.52579338,129.0975411,033-534-3934
식음료,mtd버거하우스,,강원 양양군 현북면 하조대2길 48-101,38.022806,128.720845,0507-1352-0895
식음료,Rest,강원 강릉시 선수촌로 79-21 1층,,37.757744,128.867759,033-643-9375
숙박지,SL호텔 강릉,강원 강릉시 주문진읍 교항리 190-4,강원 강릉시 주문진읍 주문로 59,37.88915566,128.8254149,033-920-1800
숙박지,가산농원캠핑장,강원 철원군 갈말읍 상사리 628-4,강원 철원군 갈말읍 상사로 377,38.22409963,127.2657242,033-452-9995
숙박지,가을동화펜션,강원 평창군 봉평면 흥정리 285-3,강원 평창군 봉평면 흥정계곡길 72,37.62729821,128.3519084,
관광지,간현관광지,강원 원주시 지정면 간현리 1056-24,강원 원주시 지정면 소금산길 12,37.36457641,127.834038,033-749-4860
식음료,갈매기다방,강원 강릉시 연곡면 영진리 357-87,강원 강릉시 연곡면 영진길 63,37.87031813,128.8429768,0507-1317-1874
식음료,감자밭,강원 춘천시 신북읍 천전리 99-13,강원 춘천시 신북읍 신샘밭로 674,37.92958863,127.784517,1566-3756
식음료,감자아일랜드 온의점,강원 춘천시 방송길 77 상가동 1층 1310호,,37.869295,127.721395,0507-1356-4681
숙박지,강릉 로뎀나무 펜션,,강원 강릉시 해안로 621번길 12,37.811725,128.897949,0505-356-9646
동물병원,강릉동물병원,강원 강릉시 옥천동 161-1,강원 강릉시 옥가로 18,37.75786009,128.8994287,0507-1315-7584
관광지,강릉안반데기관광농원,,강원 강릉시  왕산면 안반데기1길 203,37.608741,128.7401,033-644-8552
관광지,강릉커피거리,강원 강릉시 견소동 286,강원 강릉시 창해로14번길 20-1,37.77257827,128.9473353,033-640-4531
관광지,강릉항,강원 강릉시 견소동 286-5,강원 강릉시 창해로14번길 55-11,37.7713846,128.9517265,033-640-5420
관광지,강문솟대다리,강원 강릉시 강문동 248-4,,37.79777324,128.9167459,033-660-3864
관광지,강문해변,강원 강릉시 강문동 182-1,강원 강릉시 창해로350번길 7,37.79475498,128.9188935,033-660-3865
식음료,강산숯불닭갈비막국수,강원 춘천시 신북읍 천전리 672-1,강원 춘천시 신북읍 신샘밭로 621,37.9305137,127.7785203,033-242-9972
관광지,강아지숲 테마파크,강원 춘천시 남산면 광판리 1193,강원 춘천시 남산면 충효로 437,37.73643502,127.6620202,033-913-1400
동물병원,강원동물병원,강원 영월군 영월읍 영흥리 845-10,강원 영월군 영월읍 중앙로 75,37.18358081,128.4721439,033-373-0788
동물병원,강원동물병원,강원 원주시 평원로 67 (중앙동),,37.351566,127.950124,033-641-7584
숙박지,강이네하우스,강원 양양군 서면 상평리 437,강원 양양군 서면 상평1길 17-2,38.06692416,128.5833551,
숙박지,강촌잠빌펜션,강원 춘천시 남산면 방곡리 281-1,강원 춘천시 남산면 강촌로 250,37.79759514,127.6392088,
식음료,개고생,강원 원주시 단구동 1557-6,강원 원주시 천매봉길 20-9,37.32289779,127.9440499,
식음료,개버랜드,강원 강릉시 구정면 여찬리 649,강원 강릉시 구정면 구정중앙로 155-8,37.71421755,128.8737574,033-646-2375
식음료,개스토랑in위촌길299,강원 강릉시 성산면 위촌리 655-1,강원 강릉시 성산면 위촌길 299,37.7593839,128.8363287,070-7787-4733
식음료,거북이서프바,강원 양양군 현남면 남애리 180-13,강원 양양군 현남면 화상해안길 247,37.9342823,128.7889415,
관광지,경강 레일바이크,강원 춘천시 남산면 서천리 226-6,강원 춘천시 남산면 서백길 57,37.84274539,127.5509472,033-245-1002
숙박지,경포도도애견펜션,강원 강릉시 안현동 403-3,강릉시 하남길 197-15,37.80811754,128.8856929,
숙박지,경포코지펜션,강원 강릉시 난설헌로219번길 22,,37.794047,128.913339,0507-1497-7753
관광지,경포해변,강원 강릉시 안현동 산1-9,강원 강릉시 창해로 514,37.80567878,128.9074027,033-640-4531
동물병원,고려동물병원,강원 춘천시 퇴계동 140-23,강원 춘천시 안마산로 189,37.85107671,127.7353155,033-264-9975
식음료,고목,강원 춘천시 남산면 방하리 198,강원 춘천시 남산면 남이섬길 1,37.79012495,127.5261287,031-580-8053
관광지,고석정,강원 철원군 동송읍 장흥리 20-1,강원 철원군 동송읍 태봉로 1825,38.18542141,127.2874037,033-450-5559
식음료,고심쌀롱,강원 강릉시 사천면 사천진리 266-5,강원 강릉시 사천면 진리해변길 131,37.8424615,128.8737648,070-8800-4033
동물병원,고제용동물병원,강원 속초시 교동 690-13,강원 속초시 동해대로 4212,38.19492911,128.5779182,033-633-4212
숙박지,골든비치펜션,,강원 동해시 망상길 43,37.590892,129.088827,033-534-3772
숙박지,곰앤패들보드캠핑장,강원 강릉시 안현동 227-1,강원 강릉시 해안로 656-1,37.81494301,128.8953316,
관광지,공지천공원,강원 춘천시 근화동 690-1,,37.87518262,127.7095278,033-250-3089
동물병원,광장동물병원,강원 춘천시 효자동 654-3,강원 춘천시 춘천로 188 ,37.8762757,127.735269,033-242-8075
숙박지,국립화천숲속야영장,강원 화천군 간동면 간척리 산151-1,강원 화천군 간동면 배후령길 1144,38.01030672,127.7975555,033-441-4466
관광지,국민의숲,강원 평창군 대관령면 횡계리 14-370,강원 평창군 대관령면 가시머리길 36-54,37.68842511,128.7456921,033-336-4037
관광지,국제평화아트파크,강원 화천군 화천읍 동촌리 2917-9,강원 화천군 화천읍 평화로 3518,38.21098594,127.8510211,033-440-2361
숙박지,그랑샤리오,강원 평창군 방림면 계촌리 2228-2,강원 평창군 방림면 감동지길 104,37.47864698,128.273028,
숙박지,그랜드 인투라온 호텔 정선,강원 정선군 사북읍 사북리 354-32,,37.22671758,128.8123856,1666-1243
식음료,그리심,,강원 평창군 평창읍 제방길 33-6,37.36262603,128.3856955,0507-1359-4197
동물병원,그린종합동물병원,강원 원주시 행구로 44 (개운동),,37.34129671,127.9607941,033-762-9882
숙박지,그린향펜션,강원 삼척시 근덕면 용화리 136,강원 삼척시 근덕면 용화안길 81-6,37.28548241,129.2996408,0505-765-0457
식음료,글라스하우스,강원 고성군 토성면 천진리 111,강원 고성군 토성면 천진해변길 43,38.26061724,128.5598592,033-637-0406
숙박지,글램독 애견펜션 양양점,,강원 양양군 현남면 화상천로 46,37.9274375,128.7876086,
숙박지,금방아 민박 캠핑장,강원 영월군 무릉도원면 법흥리 728-1,강원 영월군 무릉도원면 무릉법흥로 516,37.31786034,128.2603555,
숙박지,금호설악리조트,강원 속초시 노학동 795-4,,38.18265196,128.54971,02-737-5400
동물병원,김남수동물병원,강원 화천군 사내면 사창리 423-14,강원 화천군 사내면 사내로 17-1,38.07018774,127.5227849,033-441-3213
관광지,김유정역 폐역,강원 춘천시 신동면 증리 859-9,,37.81948621,127.7164675,033-261-7780
동물병원,김재문동물병원,강원 횡성군 횡성읍 읍하리 134-32,강원 횡성군 횡성읍 문정로 10,37.49018689,127.9845844,033-343-5450
숙박지,까사초당,강원 강릉시 초당동 243-1,강원 강릉시 초당원길 69-1,37.78718309,128.9135012,
관광지,꺼먹다리,강원 화천군 화천읍 대이리 468-3,,38.10663593,127.76235,033-440-2575
숙박지,꽃내음펜션,강원 삼척시 근덕면 용화리 520-24,강원 삼척시 근덕면 용화안길 172,37.28355509,129.2975712,0505-765-0442
숙박지,꿈엔들캠프,강원 영월군 무릉도원면 법흥리 51,강원 영월군 무릉도원면 무릉법흥로 968-12,37.3428711,128.2809798,
식음료,나나 Dog,강원 속초시 노학동 843-10,강원 속초시 관광로 250-20,38.18262641,128.5405087,
숙박지,나디아민박,강원 삼척시 근덕면 덕산리 107-66,강원 삼척시 근덕면 덕산해변길 144-6,37.38503009,129.2421822,
식음료,나뽕남 본점,강원 양양군 현남면 시변리 33-27,강원 양양군 현남면 새나루길 9-8,37.97156103,128.7612264,070-8847-4631
동물병원,나은동물병원,강원 강릉시 교동 1881-9,강원 강릉시 교동광장로100번길 8-12,37.76516836,128.877234,033-642-7587
동물병원,나의동물메디컬센터,강원 속초시 조양동 1497-5,강원 속초시 동해대로 4163,38.19091902,128.5793925,033-636-7179
식음료,나인비치37Pub,,강원 동해시 동해대로 6218,37.59003201,129.0961145,0507-1344-2163
체험,나인비치37Surf,,강원 동해시 동해대로 6218,37.59003201,129.0961145,0507-1333-9137
숙박지,나인원펜션,강원 강릉시 안현동 743-3,강릉시 안현로 114-12,37.80251456,128.8705461,
식음료,낙산바다회마을,강원 양양군 강현면 전진리 10-2,강원 양양군 강현면 해맞이길 4,38.12060497,128.6302957,
관광지,낙산해수욕장,강원 양양군 강현면 주청리 1-1,강원 양양군 강현면 해맞이길 59,38.11692058,128.633882,033-670-2518
숙박지,남강캠프,강원 영월군 무릉도원면 법흥리 89-9,강원 영월군 무릉도원면 무릉법흥로 1050-16,37.34996603,128.2802001,033-375-1006
식음료,남다르게,강원 속초시 대포동 963,"강원 속초시 대포항희망길 59, S동 17호",38.17399079,128.605784,
관광지,남애3리해수욕장,강원 양양군 현남면 남애리 6-53,,37.94595038,128.7839069,033-670-2518
관광지,남애항,강원 양양군 현남면 남애리 2-2,강원 양양군 현남면 매바위길 138,37.94492468,128.7871306,033-670-2398
관광지,남애항 스카이워크 전망대,강원 양양군 현남면 남애리 2-72,,37.94484473,128.7884848,033-670-2397
관광지,남이섬,강원 춘천시 남산면 방하리 198-7,강원 춘천시 남산면 남이섬길 1,37.79012495,127.5261287,031-580-8114
식음료,남이섬 고목,,강원 춘천시 남산면 남이섬길 1,37.79012495,127.5261287,031-580-8053
숙박지,남이섬 설리조트펜션,,강원 춘천시 남산면 서백길 707-4,37.79579437,127.5822647,
식음료,남이섬 섬향기,,강원 춘천시 남산면 남이섬길 1,37.79012495,127.5261287,031-580-8054
식음료,남이섬 스윙까페 & 베이커리,,강원 춘천시 남산면 남이섬길 1,37.79012495,127.5261287,031-580-8020
관광지,남이섬 투개더파크,,강원 춘천시 남산면 남이섬길 1,37.79012495,127.5261287,031-580-8008
숙박지,남이섬 호텔정관루,,강원 춘천시 남산면 남이섬길 1,37.79012495,127.5261287,031-580-8000
숙박지,너랑온펜션,강원 동해시 망상동 358-3,강원 동해시 망상길 42,37.59091793,129.0892665,033-534-3756
관광지,노동당사,강원 철원군 철원읍 관전리 3-5,강원 철원군 철원읍 금강산로 265,38.25520176,127.2020009,033-450-5558
숙박지,노아스펜션,강원 춘천시 남산면 강촌리 539,강원 춘천시 남산면 검봉산길 35,37.82272894,127.6149987,033-261-5079
관광지,논골담길,강원 동해시 묵호진동 2-294,강원 동해시 논골1길2,37.55216582,129.1183172,033-530-2231
숙박지,놀러와펜션,,강원 홍천군 서면 개야마을길 172-1,37.69662707,127.6388991,
동물병원,누리종합동물병원,강원 원주시 단구동 1512-2,강원 원주시 서원대로 408,37.32997444,127.9500238,033-761-0167
동물병원,늘푸른종합동물병원,강원 원주시 무실동 1723-2,강원 원주시 만대로 15,37.34171866,127.9238389,033-747-7585
동물병원,다나동물병원,강원 정선군 정선읍 봉양리 321-3,강원 정선군 정선읍 비봉로 46,37.38110271,128.6631592,033-563-6563
동물병원,다나동물병원,,강원 원주시 무실본동길 56 (무실동),37.33738859,127.9326531,033-563-6563
숙박지,다사랑 펜션,강원 삼척시 근덕면 용화리 143-2,강원 삼척시 근덕면 용화안길 64-13,37.2864561,129.3005875,
동물병원,다솜동물병원,"강원 원주시 봉화서부로 22, 1층 (단계동)",,37.35659587,127.9189214,033-748-8275
동물병원,닥터각동물병원,강원 춘천시 퇴계동 171-5,,37.85396429,127.7377927,033-261-2524
식음료,단우물카페,강원 춘천시 신북읍 산천리 320-2,강원 춘천시 신북읍 신북로 323,37.95283265,127.7463275,
관광지,대관령 하늘목장,,강원 평창군 대관령면 꽃밭양지길 458-23,37.71174234,128.7321394,033-332-8061~3
체험,대관령눈꽃축제,강원 평창군 대관령면 횡계리 329-4,강원 평창군 대관령면 대관령로 119,37.67223639,128.709592,033-335-3995
식음료,대관령한우프라자,강원 평창군 봉평면 무이리 236-2,강원 평창군 봉평면 무이진등길 37,37.60341398,128.3413708,033-332-7222
동물병원,대명동물병원,강원 양양군 양양읍 남문리 168-2,강원 양양군 양양읍 남문로 19-1,38.07369573,128.6202171,033-673-4004
숙박지,대박이하우스,강원 평창군 봉평면 진조리 260-5,강원 평창군 봉평면 진조2길 281-4,37.55602399,128.3165773,
관광지,대진해수욕장,강원 동해시 망상동 1-3,,37.58149301,129.1091949,033-530-2272
관광지,대포항,강원 속초시 대포동 954,,38.17286584,128.6076144,033-633-3171
식음료,댕댕클럽,강원 강릉시 홍제동 657-4,강원 강릉시 사임당로 141,37.75729621,128.8654626,033-647-7000
숙박지,댕숲,,강원 평창군 봉평면 석이바우길 92-34,37.57500478,128.3540142,
숙박지,더퍼피즈블루오션,강원 양양군 강현면 정암리 17-1,강원 양양군 강현면 동해대로 3411,38.14196164,128.6124589,
관광지,덕산해변,강원 삼척시 근덕면 덕산리 119-5,,37.38622893,129.2399822,033-572-3011
숙박지,도그밀리,강원 평창군 방림면 계촌리 2232,강원 평창군 방림면 감동지길 100,37.47814652,128.2732607,
동물병원,도그빌동물병원,강원 강릉시 교동 225-12,강원 강릉시 명륜로 23-1,37.7621384,128.8959425,033-645-2289
식음료,도그스테이블,강원 춘천시 석사동 172,강원 춘천시 안마산로 294-30,37.84389915,127.7454031,033-264-0024
식음료,도즈오프 애견운동장,강원 원주시 신림면 황둔리 563,강원 원주시 신림면 신림황둔로 1060,37.25387424,128.176852,
관광지,동구래마을,강원 화천군 하남면 원천리 650-2,강원 화천군 하남면 호수길 329,38.04096634,127.6638683,033-440-2361
동물병원,동주동물병원,강원 철원군 동송읍 이평리 685-32,강원 철원군 동송읍 이평2로 17,38.20683113,127.2212374,033-455-7518
숙박지,동해 글로리아펜션,,강원 동해시 망상길 49,37.59128865,129.0885321,
동물병원,동해동물병원,강원 동해시 천곡동 886,강원 동해시 중앙로 214,37.51992764,129.1157695,033-532-7886
동물병원,두루동물병원,"강원 원주시 만대로 166, 102호 (무실동)",,37.33367951,127.9223478,033-744-6722
동물병원,두타동물병원,강원 삼척시 남양동 18-16,강원 삼척시 중앙로 245-2,37.44522975,129.1676189,033-574-0775
식음료,둥개둥개,강원 속초시 조양동 1537-1,강원 속초시 선사로2길 14,38.18727833,128.5941226,
관광지,드라마 도깨비 촬영지,강원 강릉시 주문진읍 교항리 81-32,강원 강릉시 주문진읍 해안로 1609,37.87955118,128.8335549,
관광지,등대해수욕장,강원 속초시 영량동 148-188,강원 속초시 영랑해안길 37,38.21360489,128.6006263,033-639-2830
숙박지,디어먼데이 강릉 세인트존스호텔점,"강원 강릉시 창해로 307, 세인트존스호텔 16층",,37.79128002,128.9209319,
숙박지,딜라이트펜션,강원 양양군 손양면 동호리 85-7,강원 양양군 손양면 선사유적로 244,38.05310302,128.6844128,
관광지,또멍냥,강원 홍천군 홍천읍 연봉중앙로 50-1,,37.68219628,127.8780459,
숙박지,또바기콘도펜션,강원 정선군 남면 무릉리 295,강원 정선군 남면 덕만길 5-19,37.2636234,128.7966475,
숙박지,라마다호텔&스위트평창,강원 평창군 대관령면 횡계리 245-66,강원 평창군 대관령면 오목길 107,37.66003633,128.717992,033-333-1000
숙박지,라비앙펜션,강원 평창군 봉평면 무이리 16-10,강원 평창군 봉평면 봉평북로 250-60,37.62054783,128.3501419,
숙박지,라이프위드도그,강원 인제군 인제읍 원대리 644,강원 인제군 인제읍 자작나무숲길 1112,38.00156001,128.231688,033-461-3377
숙박지,락있수다펜션,강원 정선군 화암면 호촌리 172-7,강원 정선군 화암면 소금강로 2188,37.28984089,128.8402877,
숙박지,러브팩토리펜션&캠핑장,강원 정선군 남면 낙동리 618,강원 정선군 남면 광락로 519,37.31958789,128.6796875,
숙박지,러빙네이쳐 캠핑장,강원 인제군 남면 부평리 1070-2,강원 인제군 남면 설악로 1129,38.00149385,128.1156544,
숙박지,레이지507B,,강원 홍천군 서석면 고분대월길 14-27,37.6995845,128.2468985,
식음료,레인코브,,강원 춘천시 소양고개길 17-1,37.88432886,127.7253033,0507-1361-1081
숙박지,로뎀나무 펜션,강원 강릉시 안현동 198,강릉시 해안로621번길 12,37.81182006,128.898001,0505-356-9646
식음료,로스터리 카페 더웨이,,강원 춘천시 신동면 풍류1길 72,37.81616293,127.7228801,033-264-3837
동물병원,로얄종합동물병원,강원 원주시 남원로 655 (명륜동),,37.3413637,127.9534391,033-766-8230
식음료,루체,강원 원주시 판부면 서곡리 1989-4,강원 원주시 판부면 매봉길 16-4,37.32113709,127.9424283,033-766-0216
식음료,르꼬따쥬,강원 강릉시 대전동 67,강원 강릉시 한밭골길 50-11,37.78752821,128.8642767,070-4789-0729
숙박지,리버윅펜션,강원 춘천시 남산면 강촌리 631-1,강원 춘천시 남산면 북한강변길 840,37.8286875,127.6044028,033-262-9601
식음료,마론과자점,"강원 춘천시 후석로 449, 1층",,37.88920101,127.7419823,0507-1353-6205
동물병원,마루종합동물병원,"강원 원주시 무실로 182, 106호 (단계동)",,37.34145438,127.9392644,033-742-7582
식음료,마린데크,강원 삼척시 교동 86-3,강원 삼척시 새천년도로 326,37.45672565,129.1860452,033-574-2555
식음료,마마타타,강원 강릉시 지변동 23-1,강원 강릉시 경포로 33-25,37.77373749,128.8787627,033-647-3391
숙박지,마운틴밸리펜션,강원 철원군 동송읍 상노리 830,강원 철원군 동송읍 담터길 174,38.15224046,127.2042692,033-455-5596
식음료,마추깡 카페,,강원 고성군 거진읍 해오름해변길 117,38.43889946,128.4539336,033-682-3050
관광지,막동계곡,강원 평창군 진부면 막동리 250-1,,37.53593302,128.5660396,033-330-2607
식음료,만선포차,,강원 강릉시 하슬라로206번길 12-7,37.76722151,128.8769942,0507-1357-4136
숙박지,맑은물리조트,강원 인제군 기린면 내린천로 4723,,37.97958885,128.2997637,033 463 8703
숙박지,망상파란펜션,강원 동해시 망상동 362-4,강원 동해시 망상길 49,37.59129464,129.0885299,
숙박지,망상파크펜션,강원 동해시 망상동 390-8,강원 동해시 망상길 45,37.59117725,129.0885968,033-534-3993
숙박지,망상펜션,,강원 동해시 망상길 45-1,37.59105109,129.0883498,
관광지,망상해변,강원 동해시 망상동 393-100,강원 동해시 동해대로 6270-10,37.59225327,129.0896922,033-530-2234
관광지,맹방해변,강원 삼척시 근덕면 하맹방리 221-19,강원 삼척시 근덕면 맹방해변로 228-239,37.38975176,129.2319772,033-572-3011
식음료,머구리횟집,강원 속초시 대포동 956,강원 속초시 대포항희망1길 89-2,38.17454703,128.6082991,033-635-6976
관광지,멍비치,강원 양양군 현남면 광진리 78-20,,37.95332631,128.7728595,
식음료,메밀골동해막국수 강문점,강원 강릉시 강문동 212,강원 강릉시 창해로350번길 25,37.79631596,128.9171615,033-651-3395
식음료,메밀라운지,,강원 양양군 현남면 인구중앙길 46-38,37.96766779,128.7613305,0507-1369-1717
숙박지,메이슨독채별장펜션,,강원 홍천군 서면 한치골길 925-30,37.69287766,127.6974387,0507-1320-5174
숙박지,메이플펜션,강원 정선군 남면 무릉리 739-7,강원 정선군 남면 자뭇골길 206,37.2454475,128.7613148,
숙박지,메이힐스리조트,강원 정선군 고한읍 고한리 142,강원 정선군 고한읍 물한리길 8,37.21146751,128.8353139,033-590-1000
관광지,명파해변,강원 고성군 현내면 명파리 230-29,강원 고성군 현내면 명파4길 47,38.54353862,128.4054307,033-680-3356
숙박지,명파해변 오토캠핑장,강원 고성군 현내면 명파리 230-29,강원 고성군 현내면 명파4길 47,38.54342995,128.4053666,
관광지,모래시계공원,강원 강릉시 강동면 정동진리 6-2,,37.68699969,129.0381763,033-640-4536
숙박지,모모게스트하우스,,강원 횡성군 갑천면 외갑천로736번길 4,37.56598806,128.0839122,
숙박지,몬띠마르펜션,강원 양양군 강현면 물갑리 254-5,강원 양양군 강현면 진미로 510-36,38.11898823,128.5705988,
관광지,묵호등대,강원 동해시 묵호진동 4-109,강원 동해시 해맞이길 300,37.55384198,129.1181581,033-531-3258
동물병원,문막동물병원,,"강원 원주시 문막읍 구암길 7, 1층",37.31829776,127.8291363,033-735-7582
동물병원,문혜동물병원,강원 철원군 갈말읍 군탄리 447-12,강원 철원군 갈말읍 명성로 279,38.15635794,127.3089982,033-452-5894
관광지,물길로,강원 춘천시 송암동 684,,37.85579048,127.6853596,033-251-9600
식음료,물레방아식당,강원 양양군 서면 오색리 113-1,강원 양양군 서면 설악로 1417-7,38.07616163,128.5032213,033-672-8800
관광지,물무리골생태습지,강원 영월군 영월읍 영흥리 산131-1,강원 영월군 영월읍 영월로 1713-12,37.19724469,128.4501969,1577-0545
숙박지,미산분교캠핑장,강원 인제군 상남면 미산리 376-6,강원 인제군 상남면 내린천로 1622,37.87105658,128.3182445,
식음료,미픽펍,강원 고성군 죽왕면 삼포리 243-14,강원 고성군 죽왕면 삼포해변길 11-8,38.31705029,128.5316338,070-7793-0328
관광지,민둥산,강원 정선군 남면 무릉리,,37.25025999,128.7816989,1544-9053
숙박지,바다와펜션,강원 강릉시 사천면 사천진리 279-3,강원 강릉시 사천면 해안로 1081,37.84538858,128.8693168,1644-9565
식음료,바다텃밭Lab,강원 강릉시 경강로 2015 2층,,37.74958813,128.8903084,0507-1425-7958
숙박지,바다향기펜션,강원 속초시 대포동 457-1,강원 속초시 해오름로 13,38.17869301,128.6040616,033-636-9333
식음료,바셀로,강원 평창군 용평면 장평리 119-6,강원 평창군 용평면 느므골길 53,37.57758204,128.4278411,033-333-0032
식음료,바크카페,강원 속초시 중앙동 468-32,강원 속초시 중앙로 150-1,38.20406025,128.5916421,033-637-2292
관광지,반계리 은행나무,강원 원주시 문막읍 반계리 1495-1,,37.29420807,127.7884224,
동물병원,반곡동 작은동물병원,,강원 원주시 오리현길 22(반곡동),37.33904542,127.9683703,033-747-0075
숙박지,반디하우스,강원 인제군 상남면 미산리 780-1,강원 인제군 상남면 내린천로 2355,37.87627874,128.2715919,
숙박지,발렌타인애견펜션,강원 양양군 손양면 상왕도리 742,강원 양양군 손양면 남대천로 251-117,38.04593739,128.6149272,
식음료,발바닥 애견카페,강원 춘천시 동내면 거두리 546-2,강원 춘천시 동내면 거두길 26,37.86076426,127.7624828,
숙박지,방태산솔마루오토캠핑장,강원 인제군 기린면 방동리 257,,37.93937549,128.3814791,
숙박지,백운정원펜션,강원 평창군 봉평면 팔송로 208-8,,37.61237533,128.3147961,
숙박지,밸리애견펜션,,강원 홍천군 서면 굴업솔골길 84-13,37.62307632,127.6776613,
동물병원,베스트동물병원,강원 강릉시 옥천동 163-1,강원 강릉시 경강로 2129,37.75695756,128.8991645,033-922-7582
숙박지,별비내리는마을펜션,강원 철원군 갈말읍 상사리 536,강원 철원군 갈말읍 직탕길 26,38.2079295,127.2707287,
체험,별빛반려견 놀이터,강원 영월군 남면 연당리 1036,강원 영월군 남면 연당로 47-6,37.1865875,128.4044963,033-372-0545
숙박지,보노펜션,강원 양양군 손양면 동호리 1-53,강원 양양군 손양면 선사유적로 240-29,38.05352174,128.6864849,
숙박지,보니블루 애견펜션,,강원 고성군 죽왕면 자작도선사길 130-24,38.30555748,128.5400566,0507-1356-8830
숙박지,보리네민박,강원 인제군 인제읍 원대리 671-16,강원 인제군 인제읍 자작나무숲길 1061-2,38.00382384,128.2271287,
숙박지,보물섬캠핑장,강원 평창군 봉평면 유포리 61-2,강원 평창군 봉평면 거품소길 349-6,37.55262093,128.3916694,033-334-7859
관광지,보스의 하루,,강원 영월군 영월읍 단종로 16번길 45,37.18511529,128.4708289,
동물병원,봄동물병원,강원 홍천군 홍천읍 연봉리 206-17,강원 홍천군 홍천읍 무궁화로 44,37.68363736,127.8738974,033-436-7582
숙박지,봄여름가을겨울,강원 평창군 봉평면 유포리 409-4,강원 평창군 봉평면 거품소길 271,37.55847468,128.389286,
숙박지,봉쥬르펜션,강원 평창군 봉평면 면온리 697-38,강원 평창군 봉평면 석이바우길 92-34,37.57500478,128.3540142,
숙박지,북극곰 야영장,강원 평창군 봉평면 흥정리 312-2,강원 평창군 봉평면 흥정계곡길 313-3,37.63763451,128.3388087,033-333-2019
관광지,붕어섬,강원 화천군 화천읍 하리 165,,38.09715494,127.6937166,033-440-2575
식음료,브라더조개,강원 강릉시 해안로 292 4호,,37.79131647,128.9201831,0507-1433-0364
식음료,브라질,강원 강릉시 연곡면 영진리 72-14,강원 강릉시 연곡면 해안로 1439,37.86826637,128.8463119,033-662-1259
숙박지,블루앤펫,강원 강릉시 강문동 212,강원 강릉시 창해로350번길 25,37.79631596,128.9171615,
숙박지,비다펠리스펜션,,강원 춘천시 남산면 서백길 701,37.79596759,127.5815788,0507-1335-4631
숙박지,비안단테 펜션,강원 춘천시 서면 금산리 477-1,강원 춘천시 서면 금산2길 22-4,37.9025002,127.7001769,
숙박지,비안단테펜션 원주점,강원 원주시 부론면 정산리 2121-4,강원 원주시 부론면 부론로 285-5,37.18084166,127.7579551,
식음료,비치얼스,강원 양양군 현북면 하광정리 95,강원 양양군 현북면 하조대4길 32,38.02234842,128.7229631,
숙박지,빈티지하우스펜션,강원 양양군 손양면 수산리 70,"강원 양양군 손양면 수산2길 16-11, C동",38.07796647,128.671523,
식음료,빵공장 라뜰리에 김가 원주점,강원 원주시 행구동 1347-17,강원 원주시 행구로 314,37.34292243,127.9906741,033-735-5677
식음료,삐삐라떼,강원 동해시 북평동 214-3,강원 동해시 전천로 235-21,37.48165864,129.1169257,
관광지,사근진해변,강원 강릉시 안현동 12,,37.81250898,128.8983444,033-660-3978
관광지,사근진해중공원 전망대,강원 강릉시 안현동 2-7,강원 강릉시 해안로604번길 16,37.81272232,128.8988738,
식음료,사농동334,강원 춘천시 사농동 334,강원 춘천시 영서로 2949-13,37.91525435,127.7202724,
식음료,사니다카페,강원 원주시 호저면 주산리 992-12,강원 원주시 호저면 칠봉로 109-128,37.40696776,127.914382,070-7776-4422
숙박지,사람과자연펜션,강원 영월군 주천면 판운리 302-13,강원 영월군 주천면 평창강로 67,37.29350941,128.3329582,
식음료,사진정원,강원 원주시 소초면 흥양리 247,강원 원주시 소초면 황골로 426,37.36471217,128.0065253,
관광지,사천진항,강원 강릉시 사천면 사천진리 2-95,강원 강릉시 사천면 진리해변길 68-23,37.83654014,128.8783325,033-640-4414
관광지,사천해변,강원 강릉시 사천면 방동리 68-1,강원 강릉시 사천면 해안로 877,37.82915762,128.8777795,033-640-5422
숙박지,산여울 캠핑장,강원 영월군 무릉도원면 법흥리 297,강원 영월군 무릉도원면 백년계곡길 142,37.37706961,128.2717951,033-375-2268
식음료,산일리오,강원 횡성군 둔내면 경강로 5339,,37.56492507,128.2251264,
동물병원,삼성종합동물병원,강원 원주시 태장동 1037-12,강원 원주시 현충로 278,37.37828562,127.9494881,033-732-1275
관광지,삼척 미로정원,강원 삼척시 미로면 내미로리 167,강원 삼척시 미로면 동안로 540,37.44403349,129.0712384,033-575-4846
관광지,삼척 장미공원,강원 삼척시 정상동 232,,37.43347057,129.1766732,033-570-4065
동물병원,삼척동물병원,강원 삼척시 정상동 241-3,강원 삼척시 오십천로 558-1,37.43407821,129.1772053,033-574-0075
체험,삼척해양레일바이크,강원 삼척시 근덕면 궁촌리 146-10,강원 삼척시 근덕면 공양왕길2,37.32364924,129.2663648,033-576-0656~8
동물병원,샘마루동물병원,"강원 원주시 지정면 신지정로 153-46, 1층",,37.37488369,127.8809692,033-747-5002
식음료,샘토명물닭갈비,강원 춘천시 신북읍 천전리 68-2,강원 춘천시 신북읍 신샘밭로 729,37.93136017,127.7903766,
숙박지,샬레리조트,강원 평창군 봉평면 면온리 726-1,강원 평창군 봉평면 석이바우길 71-20,37.57578605,128.3491064,033-334-5635
식음료,서면카페,강원 춘천시 서면 금산리 495-7,강원 춘천시 서면 박사로 976,37.90171712,127.6970199,033-243-6222
관광지,서오지리 연꽃단지,강원 화천군 하남면 서오지리 25-15,강원 화천군 하남면 건넌들길 97,38.04164244,127.6542804,033-440-2952
숙박지,서퍼스파라다이스 STAY,강원 양양군 현남면 인구리 631-4,강원 양양군 현남면 인구길 60-11,37.96967041,128.7616146,
숙박지,서프쉑펜션,강원 양양군 손양면 선사유적로 316-74,,38.05318853,128.6868168,
관광지,서피비치,강원 양양군 현북면 중광정리 508,강원 양양군 현북면 하조대해안길 119,38.02775348,128.7175212,1522-2729
관광지,선돌,강원 영월군 영월읍 방절리 산 122,,37.20557108,128.4340853,1577-0545
관광지,설악 해맞이 공원,강원 속초시 동해대로 3664,,38.16315214,128.6085151,033-639-2422
동물병원,설악동물병원,강원 속초시 교동 800-1,강원 속초시 동해대로 4308,38.20025233,128.5709125,033-631-6638
숙박지,설악비치펜션,강원 양양군 강현면 전진리 66-8,강원 양양군 강현면 뒷나루2길 5-4,38.12933371,128.6229434,
숙박지,설악의정원,강원 고성군 토성면 원암리 259-4,강원 고성군 토성면 용원로 595,38.21458163,128.5173767,0507-1490-4992
관광지,설악해맞이공원,강원 속초시 대포동 178-9,강원 속초시 동해대로 3664,38.16315084,128.6085311,033-639-2422
관광지,설악해수욕장,강원 양양군 강현면 전진2리,강원 양양군 강현면 동해대로 3254,38.12420744,128.6299653,033-670-2518
동물병원,성일동물병원,강원 철원군 동송읍 이평리 853-38,강원 철원군 동송읍 금학로 240-1,38.20991916,127.2172647,033-455-8943
식음료,세계주류마켓,강원 춘천시 동내면 학곡리 5-63,강원 춘천시 동내면 순환대로 630,37.83984386,127.7621803,
관광지,세계평화의종공원,강원 화천군 화천읍 동촌리 2917-9,강원 화천군 화천읍 평화로 3481-143,38.21061647,127.851844,033-440-2318
식음료,세레니타,강원 강릉시 교동 711-13,강원 강릉시 율곡로 3034,37.7731495,128.8902565,033-641-3475
숙박지,세인트존스호텔,강원 강릉시 강문동 1-1,강원 강릉시 창해로 307,37.79128075,128.9209314,033-660-9000
체험,세인트존스호텔 파인풀,강원 강릉시 강문동 1-1,강원 강릉시 창해로 307,37.79128075,128.9209314,033-660-9000
식음료,셰프스키친,강원 홍천군 서면 팔봉리 1290-2,강원 홍천군 서면 한치골길 262,37.65233706,127.6873348,033-439-7437
숙박지,소노펫클럽앤리조트,강원 홍천군 서면 팔봉리 1290-2,강원 홍천군 서면 한치골길 262,37.65233706,127.6873348,1588-4888
관광지,소돌해변,강원 강릉시 주문진읍 주문리 800-3,강원 강릉시 주문진읍 해안로 1993,37.90680516,128.8266664,033-661-5692
관광지,소양강댐,강원 춘천시 신북읍 천전리 산73-18,,37.94747984,127.8129993,033-242-2455
관광지,속초 관광수산시장,강원 속초시 중앙동 474-13,강원 속초시 중앙로147번길 12,38.2039889,128.5905524,
동물병원,속초동물의료센터,강원 속초시 교동 741-5,강원 속초시 수복로 69,38.19891948,128.5772801,033-638-0075
동물병원,속초삼성동물병원,강원 속초시 청학동 634-11,강원 속초시 번영로 56,38.20494584,128.5840778,033-636-0305
관광지,속초시 반려견놀이터,강원 속초시 장사동 산 38-4,,38.21446224,128.5692584,033-639-2391
식음료,솔길따라,강원 춘천시 동면 만천리 395-6,강원 춘천시 동면 도토골길 62,37.8825971,127.772977,
식음료,솔솔밀크티,강원 동해시 망상동 363-1,강원 동해시 망상길 43,37.59104778,129.0887659,
숙박지,솔치송어파티펜션,강원 원주시 신림면 송계리 567-1,강원 원주시 신림면 솔치안길 91,37.26869471,128.1999276,033-764-1506
식음료,솜밤,강원 원주시 판부면 금대리 756-2,강원 원주시 판부면 치악로 939,37.27960707,128.0046352,070-4240-6740
관광지,송정해변,강원 강릉시 송정동 1,강원 강릉시 송정길30번안길 20-3,37.77679581,128.9371999,033-640-5422
숙박지,수한예,강원 춘천시 동면 장학리 730-6,강원 춘천시 동면 하일길 197,37.90500504,127.7536696,
관광지,순긋해변,강원 강릉시 안현동 234-7,강원 강릉시 해안로 682-5,37.81675944,128.8931036,033-640-4414
관광지,순수양떼목장,강원 평창군 대관령면 횡계리 산2-45,강원 평창군 대관령면 오목길 152,37.65885258,128.7197653,033-335-1497
관광지,순포해변,강원 강릉시 사천면 산대월리 산 1,,37.82284256,128.8859931,033-640-4757
식음료,순풍포장마차,강원 속초시 청초호반로 312-1,,38.20210669,128.5913135,0507-1339-6611
숙박지,숲속의 정원,강원 고성군 죽왕면 야촌리 1024-30,강원 고성군 죽왕면 곡실평길 332,38.30652792,128.489706,
숙박지,숲속의집,강원 양양군 현북면 어성전리 58,강원 양양군 현북면 어성전길 402,37.93192757,128.674843,033-673-9597
식음료,쉬러와,강원 춘천시 신북읍 지내리 473,강원 춘천시 신북읍 지내고탄로 246,37.95182768,127.7309014,033-242-6039
식음료,스끼다시천국,강원 속초시 동명동 1-192,강원 속초시 영랑해안길 11,38.21290289,128.6007913,033-631-1090
식음료,스누피 애견카페,,강원 춘천시 동면 금옥길 132,37.91680754,127.7957754,033-255-9066
식음료,스누피자,,강원 양양군 강현면 복골길269번길 16-6,38.14485264,128.5586575,033-671-6726
식음료,스웨이,강원 강릉시 안현동 94-143,강원 강릉시 경포로 489-6,37.80400734,128.9047496,
식음료,스퀘어루트카페,강원 고성군 죽왕면 가진리 275,강원 고성군 죽왕면 가향길 2-7,38.37524004,128.5057252,033-681-0604
식음료,슬로우데이,,강원 춘천시 신북읍 배후령1길 70,37.93735442,127.7772457,0507-1364-2742
숙박지,슬로우캠프,강원 영월군 무릉도원면 운학리 614-3,강원 영월군 무릉도원면 고일길 18-5,37.34616675,128.1948578,
식음료,시도네과자상점,,강원 원주시 소삼터길 10-14,37.34569809,127.9355006,0507-1394-0640
식음료,시즈온,강원 원주시 반곡동 1848-3,강원 원주시 양지뜰4길 1-2,37.32731812,127.9824148,
식음료,시크릿가든,강원 홍천군 화촌면 성산로 162,,37.77167187,127.9687323,
숙박지,신나개 애견펜션,강원 삼척시 근덕면 덕산리 300,강원 삼척시 근덕면 덕산해안로 78,37.38188252,129.2434085,
식음료,신리광장,강원 강릉시 주문진읍 교항리 375-2,강원 강릉시 주문진읍 신리천로 79,37.88264744,128.8224081,033-662-7977
식음료,신북청 아바이순대,강원 속초시 청호동 874,강원 속초시 아바이마을길 7-2,38.20226336,128.5937287,033-638-4687
식음료,신북커피,강원 춘천시 신북읍 천전리 672-5,강원 춘천시 신북읍 신샘밭로 622-7,37.9296128,127.7788168,
식음료,신세계춘천정통닭갈비,강원 춘천시 신북읍 율문리 37-161,강원 춘천시 신북읍 신샘밭로 388-8,37.92547453,127.7534347,033-244-7575
숙박지,신영펜션,강원 홍천군 서면 대곡리 25,강원 홍천군 서면 한치골길 75-12,37.62763914,127.6671735,033-435-8666
숙박지,신원비엔빌,강원 양양군 손양면 동호리 104-5,강원 양양군 손양면 굴개길 72,38.05352114,128.6827622,033-672-8777
식음료,신피디통큰,강원 속초시 중앙동 480,강원 속초시 청초호반로 322,38.20272174,128.5920527,033-638-3805
동물병원,신흥동물병원,강원 홍천군 홍천읍 신장대리 13-1,강원 홍천군 홍천읍 번영로 61-1,37.69047033,127.887207,033-434-2206
식음료,썸머키친,강원 강릉시 지변동 310,강원 강릉시 죽헌길 67-6,37.77495417,128.8750875,070-7724-5636
숙박지,쏠리오,강원 춘천시 남산면 서천리 319,강원 춘천시 남산면 서천길 117,37.84439791,127.542152,
숙박지,씨스포빌리조트,,강원 삼척시 근덕면 상맹방길 30-80,37.39590723,129.2207959,033-570-5000
식음료,아기사자,강원 원주시 지정면 간현리 287-3,강원 원주시 지정면 오얏길 56,37.33764862,127.8470671,033-733-0208
식음료,아늑한옥,강원 원주시 신림면 성남리 401-1,강원 원주시 신림면 아랫성남길 26,37.2603271,128.0840486,070-7372-6950
숙박지,아담하우스,강원 양양군 강현면 주청리 7-30,강원 양양군 강현면 주청2길 17,38.11793029,128.6297603,
관광지,아들바위공원,강원 강릉시 주문진읍 주문리 791-47,,37.90588059,128.8301068,033-1330
관광지,아라리공원,강원 정선군 정선읍 봉양리 362-5,,37.3791473,128.6667196,
식음료,아라커피,강원 고성군 죽왕면 공현진리 153,강원 고성군 죽왕면 공현진길 6,38.35236137,128.5097545,033-633-4456
관광지,아를테마수목원,강원 화천군 하남면 거례리 514-1,,38.07199798,127.6886194,033-440-2575
숙박지,아름다운바다콘도텔,강원 양양군 강현면 물치리 32,강원 양양군 강현면 동해대로 3575,38.15569302,128.6088676,033-673-6612
숙박지,아름다운집,강원 춘천시 남산면 강촌리 645-1,강원 춘천시 남산면 북한강변길 826,37.82891519,127.6028694,
관광지,아름들 반려견쉼터,강원 원주시 흥업면 흥업리 222,,37.29566456,127.9251417,
동물병원,아리동물병원,강원 화천군 화천읍 아리 110-4,강원 화천군 화천읍 가손이길 36,38.10006798,127.7261631,033-442-7990
관광지,아바이마을,강원 속초시 청호동 1076,강원 속초시 청호로 122,38.20061796,128.5948075,033-633-3171
숙박지,아쇼카펜션,강원 양양군 손양면 동호리 1-43,강원 양양군 손양면 선사유적로 316-104,38.05139985,128.688467,
관광지,아야진 해변,강원 고성군 토성면 아야진리 230-6,강원 고성군 토성면 아야진해변길 157,38.27651142,128.5527621,033-680-3356
관광지,아우라지,강원 정선군 여량면 여량리 726,,37.47712868,128.7220744,1544-9053
식음료,아울러,,강원 춘천시 뱀내길 6,37.87206182,127.7078026,
동물병원,아이즈동물병원,강원 강릉시 옥천동 285-2,강원 강릉시 옥가로 22,37.7582074,128.899471,033-646-8841
식음료,아임파인쉬림프,강원 속초시 중앙동 473-20,강원 속초시 중앙로129번길 34,38.20416297,128.5896257,033-638-0608
숙박지,아침에새소리,강원 평창군 봉평면 무이리 288-1,강원 평창군 봉평면 백운동길 60-6,37.61691602,128.3420802,
숙박지,아침의소리,,강원 평창군 봉평면 무이진등길 77-70,37.59823945,128.3439652,
숙박지,아폴로천문대펜션,강원 화천군 사내면 광덕리 1127,강원 화천군 사내면 천문대길 79-8,38.10805373,127.4436416,033-441-7342
관광지,안목해변,강원 강릉시 견소동 286-8,강원 강릉시 창해로14번길 3,37.77365175,128.9459974,033-660-3887
관광지,안인항,강원 강릉시 강동면 안인진리 314-2,강원 강릉시 강동면 안인진길 47,37.73609022,128.988591,033-660-3598
동물병원,애견종합동물병원,강원 강릉시 옥천동 168-4,강원 강릉시 경강로 2130,37.75655035,128.899418,033-647-8575
식음료,앤트리카페,,강원 고성군 죽왕면 자작도선사1길 18-1,38.3093006,128.5402627,0507-1436-0552
관광지,양구꽃섬,강원 양구군 양구읍 하리 589-4,,38.11469506,127.9847824,033-480-2176
숙박지,양양캠핑장 어성전계곡야영장,강원 양양군 현북면 어성전리 221-1,강원 양양군 현북면 어성전길 182-18,37.94716181,128.6634302,033-672-0236
숙박지,양양해피플레이스,강원 양양군 강현면 중복리 109-2,강원 양양군 강현면 중복골길 11,38.14120923,128.5727596,
식음료,어느멋진날카페,강원 양양군 강현면 정암리 148-2,강원 양양군 강현면 동해대로 3373,38.13892965,128.6148906,
식음료,어도러블독,강원 홍천군 홍천읍 갈마곡리 426-2,강원 홍천군 홍천읍 홍천로 491,37.6971734,127.8947295,033-433-3631
식음료,어리틀빗,,강원 속초시 바람꽃마을길 157,38.19754096,128.5250145,0507-1448-0716
식음료,어반그린,강원 춘천시 서면 현암리 578-5,강원 춘천시 서면 박사로 732,37.88437077,127.683179,
식음료,에를레프니스,강원 춘천시 동면 만천로 84,,37.88063553,127.7652301,070-4239-4222
숙박지,엘페로애견펜션,강원 홍천군 서면 대곡리 86-11,강원 홍천군 서면 한서로 2019,37.62483522,127.6632425,
식음료,엠꼼마카롱,강원 강릉시 임당동 103-3,강원 강릉시 경강로2115번길 15,37.75698167,128.8966894,070-8870-8485
숙박지,여울소리 오토 캠핑장,강원 영월군 무릉도원면 무릉리 800-5,강원 영월군 무릉도원면 중방길 2-45,37.29335475,128.2687783,033-375-7863
식음료,연봉리제빵소 로스터리카페,,강원 홍천군 홍천읍 남산마을길3길 25,37.6823227,127.8820758,0507-1345-5093
동물병원,열린동물병원,강원 원주시 무실동 1734-4,강원 원주시 만대공원길 8-10,37.33714674,127.9288536,033-743-6466
관광지,영금정,강원 속초시 동명동 1-185,강원 속초시 영금정로 43,38.2118456,128.6014382,033-639-2690
관광지,영원산성,강원 원주시 판부면 금대리 1388,강원 원주시 판부면 영원산성길 685,37.30548316,128.0308701,033-742-2111
숙박지,영월 스카이펜션&캠핑장,강원 영월군 무릉도원면 법흥리 587,강원 영월군 무릉도원면 무릉법흥로 852-15,37.3353952,128.2823443,033-372-0399
숙박지,영월캠프,강원 영월군 무릉도원면 법흥리 143-3,강원 영월군 무릉도원면 무릉법흥로 1208-56,37.36214886,128.2772394,
숙박지,영월키즈캠핑장(힐링캠프),강원 영월군 무릉도원면 법흥리 181,강원 영월군 무릉도원면 무릉법흥로 1208-7,37.36410794,128.2734027,
숙박지,영월한반도캠핑장,강원 영월군 한반도면 후탄로 826,,37.21525552,128.3562489,
관광지,영진항,강원 강릉시 연곡면 영진리 2-3,,37.86801257,128.8479445,033-660-3682
관광지,영진해변,강원 강릉시 연곡면 영진리 72-2,,37.86895106,128.8450214,033-640-5422
식음료,예당앤다울펫,강원 춘천시 신북읍 신북로 153,,37.93925257,127.7514074,
식음료,예와생스튜디오카페,강원 춘천시 동면 지내리 407,강원 춘천시 동면 가산로 186-5,37.92083812,127.7822099,
식음료,옛날초당순두부,강원 강릉시 운정동 334-2,강원 강릉시 운정길 141,37.78671825,128.8927787,033-645-0557
숙박지,오늘은바다 애견펜션,강원 강릉시 사천면 해안로 904-11,,37.83193309,128.875824,
식음료,오대양수산,강원 양양군 현북면 하광정리 628-1,강원 양양군 현북면 하조대해안길 11,38.02148572,128.7262525,033-673-5542
식음료,오대양횟집,강원 속초시 장사동 548-7,강원 속초시 장사항해안길 58,38.22664409,128.5880191,033-635-8385
숙박지,오색그린야드호텔,,강원 양양군 서면 대청봉길 34,38.08023139,128.4475247,033-670-1000
숙박지,오션투유리조트,,강원 고성군 죽왕면 삼포해변길 9,38.31704543,128.5310817,1666-1243
숙박지,오크카운티펜션,강원 원주시 지정면 판대리 612-27,강원 원주시 지정면 구재로 352-4,37.41347341,127.8040842,
숙박지,오투리조트,강원 태백시 서학로 861,,37.17067338,128.9480854,033-580-7000
숙박지,오핑펜션,강원 양양군 강현면 전진리 58-3,강원 양양군 강현면 뒷나루2길 24-1,38.12807794,128.6243134,
체험,옥산가(옥광산),강원 춘천시 동면 월곡리 246,강원 춘천시 동면 금옥길 228,37.92005546,127.8052555,1544-0741
숙박지,올리브펜션,강원 동해시 대진동 187-4,강원 동해시 일출로 369,37.57391445,129.1167065,033-532-2563
식음료,와룽빠뜨릭,강원 양양군 현남면 동산리 134-2,강원 양양군 현남면 동산큰길 44-3,37.97959866,128.7603308,033-673-8492
동물병원,와수대화동물병원,강원 철원군 서면 와수리 1139-3,강원 철원군 서면 와수1로 7-1,38.23775994,127.4365305,033-458-4558
식음료,와수리 커피,강원 철원군 서면 와수리 1194-58,강원 철원군 서면 아리랑로37번길 19,38.24386997,127.4397529,
식음료,와이어드커피,강원 춘천시 동내면 학곡리 5-14,강원 춘천시 동내면 순환대로 632,37.83984386,127.7621803,033-264-0633
관광지,요선암 돌개구멍,강원 영월군 무릉도원면 무릉리 1057,강원 영월군 무릉도원면 도원운학로 13-39,37.29727759,128.2618964,033-560-2379
관광지,요선암 요선정,강원 영월군 무릉도원면 무릉리 1057,강원 영월군 무릉도원면 도원운학로 13-39,37.29727759,128.2618964,033-370-2931
식음료,용산559,강원 춘천시 신북읍 용산리 559,강원 춘천시 신북읍 용산길 191-21,37.95979135,127.7141629,
동물병원,우리동물병원,강원 홍천군 홍천읍 진리 22-9,강원 홍천군 홍천읍 홍천로 420,37.69191423,127.8909661,033-436-7502
동물병원,우리동물병원,강원 춘천시 동내면 거두리 926-5,강원 춘천시 동내면 춘천순환로 70,37.85534539,127.751658,033-263-7502
식음료,우밀타,강원 원주시 반곡동 1852-2,강원 원주시 양지뜰4길 6,37.32734767,127.9830123,
동물병원,원주24시스카이동물메디컬센터,강원 원주시 단구동 1599-6,강원 원주시 서원대로 502,37.32494362,127.9583035,0507-1366-9975
동물병원,원주동물병원,강원 원주시 단계동 826-12,강원 원주시 천사로 79,37.34756897,127.9336014,033-743-8882
숙박지,월드니스 글램핑장,강원 영월군 무릉도원면 도원리 795-1,강원 영월군 무릉도원면 도원운학로 475-10,37.30076708,128.221409,
숙박지,월드니스 오토 캠핑장,강원 영월군 무릉도원면 도원리 795-1,강원 영월군 무릉도원면 도원운학로 475-10,37.29993249,128.220668,
숙박지,월드스카이호텔,강원 속초시 청학동 482-524,강원 속초시 청초호반로 267,38.20113028,128.5864637,1670-0664
관광지,월화거리,강원 강릉시 성남동 44-16,강원 강릉시 금성로 11번길 9,37.75414048,128.8997378,033-640-5643
동물병원,위드동물병원,강원 강릉시 홍제동 1026-5,강원 강릉시 선수촌로63번길 18-7,37.75704766,128.8683395,033-645-5575
식음료,유2버호프,강원 원주시 무실동 1850-4,강원 원주시 능라동길 34-1,37.33341057,127.9291513,033-735-9006
식음료,유기농카페,강원 춘천시 신북읍 지내리 664-1,강원 춘천시 신북읍 지내고탄로 184,37.94627753,127.7303991,
체험,유알컬처파크,강원 원주시 지정면 안창리 595-14,강원 원주시 지정면 지정로 912,37.35851945,127.8022774,
숙박지,유알풀빌라펜션,강원 원주시 지정면 안창리 595-6,강원 원주시 지정면 지정로 912-1,37.35812207,127.8000348,
동물병원,윤성철동물병원,강원 홍천군 홍천읍 신장대리 31-1,강원 홍천군 홍천읍 홍천로 381,37.68996943,127.8875268,033-435-6995
식음료,윤스빈,강원 영월군 영월읍 하송리 184-46,강원 영월군 영월읍 분수대길 64,37.1806088,128.4651649,033-375-3077
숙박지,으지네민박,,강원 평창군 진부면 탑동길 108-16,37.69467873,128.5597837,0507-1362-8596
관광지,은하수교,강원 철원군 동송읍 장흥리 2471,강원 철원군 동송읍 한탄강길 112,38.19977388,127.2775145,033-450-5114
식음료,이르레,,강원 춘천시 동면 금베이길 63,37.8761963,127.7854622,0507-1350-8783
식음료,인더가든,강원 인제군 남면 신남리 513-1,강원 인제군 남면 삼팔선로 2115,37.96753479,128.0777205,033-461-6248
식음료,인디언독,강원 춘천시 동면 만천리 332-7,강원 춘천시 동면 만천양지길 147-1,37.89015143,127.7695917,033-253-2250
체험,인제빙어축제,강원 인제군 남면 부평리 555-2,,37.99774745,128.0985029,1577-8924
숙박지,인제스피디움,강원 인제군 기린면 상하답로 130,,38.0026073,128.2953843,1644-3366
동물병원,인제종합동물병원,강원 인제군 인제읍 남북리 810-5,강원 인제군 인제읍 비봉로44번길 70,38.06192532,128.1682389,033-461-3960
관광지,장전계곡,강원 평창군 진부면 장전리 산1,강원 평창군 진부면 장전길 435-2,37.47730215,128.5417936,033-330-2607
숙박지,장호비치캠핑장,강원 삼척시 근덕면 장호리 217-2,강원 삼척시 근덕면 삼척로 2116,37.28456,129.3124077,033-576-0884
관광지,장호항,강원 삼척시 근덕면 장호리 3-1,강원 삼척시 근덕면 장호항길 99,37.28643781,129.3178991,033-572-3011
관광지,장호해변,강원 삼척시 근덕면 장호리 413-8,,37.28583179,129.3147671,033-572-3011
관광지,젊은달와이파크,강원 영월군 주천면 주천리 1376-36,강원 영월군 주천면 송학주천로 1467-9,37.27400332,128.2692247,033-372-9411
숙박지,정관루,강원 춘천시 남산면 방하리 198-1,,37.79012495,127.5261287,031-580-8000
관광지,정동진,강원 강릉시 강동면 정동진리 328-13,,37.69471431,129.0109086,033-640-4536
체험,정선 레일바이크,강원 정선군 여량면 구절리 290-82,강원 정선군 여량면 노추산로 745,37.5170461,128.7304317,033-563-8787
관광지,정선 병방치 스카이워크,,강원 정선군 정선읍 병방치길 225,37.36235954,128.6354267,033-563-4100
체험,정선 스카이워크,강원 정선군 정선읍 귤암리 산200,강원 정선군 정선읍 병방치길 225,37.36235936,128.6354266,033-563-4100
숙박지,정선황토펜션,강원 정선군 정선읍 북실리 630-3,강원 정선군 정선읍 병방치길 35-18,37.37525603,128.6459859,
관광지,정암해수욕장,강원 양양군 강현면 정암리 3,,38.14030207,128.6141954,
숙박지,정원가든 애견동반펜션,강원 삼척시 근덕면 용화리 403,강원 삼척시 근덕면 용화안길 225-1,37.28057338,129.2965226,0505-679-2926
체험,제니얼독,강원 속초시 떡밭재로 232,,38.18339069,128.5821351,
동물병원,제일동물병원,강원 원주시 평원로 29 (중앙동),,37.34906212,127.9524497,033-741-5125
동물병원,조광동물병원,강원 속초시 교동 826-4,강원 속초시 만천2길 17-4,38.19839889,128.5765565,033-631-5848
숙박지,조양펜션,강원 속초시 조양동 1463-7,강원 속초시 동해대로3950번길 15,38.18818533,128.6025738,
동물병원,조은 동물병원,"강원 원주시 로아노크로 8, 1층 (단계동)",,37.3439999,127.9272135,033-742-8475
식음료,좋은날N,강원 강릉시 강문동 27-23,강원 강릉시 해안로 280,37.7905472,128.9209372,033-651-9980
식음료,좋은날케이크,"강원 평창군 진부면 청송로 88-11, 1층",,37.63611648,128.5564006,0507-1368-3631
관광지,주문진항,강원 강릉시 주문진읍 주문리 312-512,강원 강릉시 주문진읍 해안로 1758-22,37.89191073,128.8302025,033-660-3438
관광지,주문진해변,강원 강릉시 주문진읍 향호리 8-17,강원 강릉시 주문진읍 주문북로 210,37.91013153,128.8176761,033-640-5422
동물병원,주주동물병원,강원 강릉시 입암동 596-1,강원 강릉시 성덕포남로 105,37.76299141,128.9146523,033-652-0075
관광지,죽도정,강원 양양군 현남면 인구리 1-17,강원 양양군 현남면 인구항길 24,37.97134592,128.7626748,033-670-2397
관광지,죽도해수욕장,강원 양양군 현남면 시변리 33-38,,37.97215912,128.7616571,033-670-2397
식음료,준독라운지,,강원 춘천시 효자로150번길 11-1,37.87596149,127.7365613,033-254-0045
체험,준독트레이닝센터,,강원 춘천시 서면 노동길 71,37.84040675,127.5879998,0507-1414-8846
동물병원,중앙가축병원 원주대리점,강원 원주시 단계동 924-15,강원 원주시 한지공원길 212,37.3383379,127.9318154,033-735-1482
동물병원,중앙동물병원,강원 강릉시 주문진읍 교항리 48-218,강원 강릉시 주문진읍 연주로 308-1,37.87993591,128.8267844,
동물병원,쥬쥬동물병원,강원 동해시 효가동 162-53,강원 동해시 지양길 6,37.49296704,129.10818,033-522-3313
관광지,지경리해수욕장,강원 양양군 현남면 지경리 22-6,,37.9239813,128.7993429,033-671-4568
숙박지,지니의캠프펜션,,강원 원주시 지정면 장지길 69-22,37.36945818,127.8115336,
관광지,직탕폭포,강원 철원군 동송읍 장흥리 336,강원 철원군 동송읍 직탕길 94,38.2092574,127.2653702,033-450-5534
숙박지,청옥산 깨비마을 캠핑장,,강원 평창군 미탄면 수리재길 21,37.36782854,128.4853593,
관광지,청초호 호수공원,강원 속초시 조양동 1544-2,강원 속초시 철새길 76,38.19192935,128.5865289,033-639-2422
숙박지,청호정펜션,강원 영월군 영월읍 방절리 676-2,강원 영월군 영월읍 선돌길 249,37.19196437,128.4295235,
식음료,초이랑,강원 춘천시 신북읍 천전리 115-1,강원 춘천시 신북읍 배후령길 9,37.93078101,127.7815219,033-252-5556
관광지,촛대바위,강원 동해시 추암동 474-6,강원 동해시 촛대바위길 17-1,37.47899434,129.1586323,033-530-2801
식음료,추암대게,강원 동해시 추암동 1-9,강원 동해시 촛대바위길 18,37.47780164,129.1588039,
관광지,추암조각공원,강원 동해시 추암동 산72,,37.47991814,129.1568824,033-530-2478
관광지,추암촛대바위,,강원 동해시 촛대바위길 17-1,37.4789948,129.1586319,033-530-2801
관광지,추암해변,강원 동해시 추암동 1,강원 동해시 촛대바위길 26,37.47725691,129.1591779,033-539-8825
체험,춘천 물레길,강원 춘천시 송암동 644-23,강원 춘천시 스포츠타운길 113-1,37.85496429,127.6857679,033-242-8463
관광지,춘천댐,강원 춘천시 서면 오월리 산12-34,,37.96558831,127.6398848,033-245-2211
숙박지,춘천숲자연휴양림캠핑장,강원 춘천시 동산면 군자리 산403,강원 춘천시 동산면 종자리로 224-104,37.74773175,127.7425035,033-264-1156
체험,춘천의암호스카이워크,강원 춘천시 칠전동 486,,37.84684571,127.6807019,033-253-3700
동물병원,춘천축산농협양구지점동물병원,강원 양구군 양구읍 상리 269-5,강원 양구군 양구읍 중앙길 33-6,38.10593547,127.9896029,
식음료,춘천통나무집닭갈비,강원 춘천시 신북읍 신샘밭로 763,,37.93311389,127.7932958,033-241-5999
숙박지,카리스펜션,강원 강릉시 연곡면 동덕리 144-10,강릉시 연곡면 해안로 1279,37.85730937,128.8528343,
식음료,카사데인제,강원 인제군 남면 신남로 17-93,,37.96077911,128.0720259,0507-1305-4898
식음료,카페 8mm,강원 춘천시 신동면 팔미리 237-2,강원 춘천시 신동면 모오리길 47-28,37.82232826,127.7037905,033-262-6868
식음료,카페 까만콩,강원 홍천군 홍천읍 결운리 314-16,강원 홍천군 홍천읍 홍천로 666-1,37.70679886,127.9101476,
식음료,카페 덕덕,,강원 강릉시 난설헌로 219번길 20-5,37.79429638,128.9139488,
식음료,카페 보름월,,강원 영월군 영월읍 분수대길 64,37.18060974,128.4651619,033-375-3077
식음료,카페 애드,강원 속초시 청초호반로 246-2,,38.20028041,128.584245,033-299-0024
식음료,카페 위드민,강원 원주시 단구동 1694-14,강원 원주시 앙월길 47,37.31700875,127.9574499,033-766-7654
식음료,카페 카테고리,강원 철원군 동송읍 북원로 1388,,38.20678685,127.2296113,0507-1411-3323
식음료,카페 캐빈,강원 춘천시 남면 후동리 367-2,강원 춘천시 남면 버들길 60-7,37.7473815,127.6301543,
식음료,카페 테일,,강원 고성군 죽왕면 가진길 40-5,38.37282715,128.5087306,0507-1437-8060
식음료,카페견로당,강원 인제군 인제읍 원대리 671-13,강원 인제군 인제읍 자작나무숲길 1061-5,38.00390854,128.2267036,
식음료,카페공간,강원 철원군 갈말읍 상사리 535,강원 철원군 갈말읍 직탕길 26,38.2079295,127.2707287,
식음료,카페나스,강원 춘천시 신북읍 천전리 85-1,강원 춘천시 신북읍 신샘밭로 706-8,37.92941846,127.7875224,033-241-9445
식음료,카페너니,강원 춘천시 석사동 660-9,강원 춘천시 효석로 129,37.85734465,127.7427135,
식음료,카페너래,,강원 속초시 원암학사평길 114,38.20630788,128.5205349,0507-1423-1324
식음료,카페노멀데이,강원 강릉시 임당동 90-3,강원 강릉시 문화의길8번길 11,37.75547523,128.8954558,
식음료,카페도즈오프,강원 원주시 신림면 신림황둔로 1060,,37.25388757,128.1768519,
식음료,카페독스,강원 철원군 동송읍 이평리 851-28,강원 철원군 동송읍 이평로 91,38.20853256,127.214094,033-455-1117
식음료,카페루아,강원 강릉시 주문진읍 향호리 113-1,강원 강릉시 주문진읍 아래강정길 8-47,37.90761981,128.8030868,
식음료,카페멜버른,강원 춘천시 효자동 704-23,강원 춘천시 남춘로45번길 28,37.86638945,127.7297045,
식음료,카페물치에,,강원 양양군 강현면 장산1길 48-1,38.14697066,128.5951047,033-673-1085
식음료,카페뮤지스,강원 영월군 영월읍 하송리 121-2,강원 영월군 영월읍 은행나무길 90,37.17838889,128.4626857,033-375-5497
식음료,카페정원,,강원 화천군 화천읍 가손이길 36,38.10004603,127.7262461,033-441-9500
식음료,카페캐빈,,강원 춘천시 남면 버들길 60-7,37.7473361,127.6301876,
숙박지,캠핑올라,강원 영월군 주천면 용석리 1281-1,강원 영월군 주천면 황산벌길 186,37.21926827,128.2778228,
식음료,커멍커멍,강원 춘천시 동산면 원창리 880-1,강원 춘천시 동산면 새술막길 691,37.78616622,127.7560867,033-262-0599
식음료,커피베이 영월점,강원 영월군 영월읍 영흥리 947-53,강원 영월군 영월읍 중앙로 32,37.18340187,128.4671989,033-374-6666
식음료,커피정원,강원 삼척시 정상동 243-2,강원 삼척시 오십천로 566,37.43371985,129.1777922,033-575-4343
숙박지,케렌시아펜션,강원 철원군 동송읍 장흥리 54-14,강원 철원군 동송읍 창동로 2282,38.18290052,127.2764054,033-456-0303
숙박지,코스테오션뷰애견펜션,강원 강릉시 사천면 해안로 725-2,,37.81954098,128.8895007,0507-1462-6000
식음료,쿠키멍스터,강원 춘천시 운교동 184-5,강원 춘천시 춘천로185번길 15,37.87774826,127.7340299,070-8800-3925
숙박지,큐브존캠핑&펜션,강원 영월군 한반도면 옹정리 440-19,강원 영월군 한반도면 한반도로 794-14,37.23187464,128.3471724,
식음료,크렘미엘,,강원 원주시 화실건너들길 22,37.34514711,127.9816778,0507-1342-9008
식음료,키크러스커피,강원 강릉시 견소동 1,강원 강릉시 창해로14번길 48-1,37.77079702,128.9495701,033-653-6004
식음료,탐앤탐스 영월점,강원 영월군 영월읍 삼옥리 1646-6,강원 영월군 영월읍 동강로 100,37.19160971,128.5019794,033-375-3920
숙박지,탑스텐 리조트 동강시스타,강원 영월군 영월읍 삼옥리 108,강원 영월군 영월읍 사지막길 160,37.21776152,128.5187442,"033-905-2000, 033-905-2070, 033-905-2071, 033-905-2072"
동물병원,태백동물병원,강원 태백시 황지동 240-8,강원 태백시 번영로 212,37.16237564,128.9851583,033-553-3622
식음료,테라스의아침,강원 홍천군 서면 팔봉리 83-3,강원 홍천군 서면 팔봉강변길 217,37.69713728,127.7103616,
관광지,통일전망대,강원 고성군 현내면 마차진리 188,강원 고성군 현내면 금강산로 481,38.51438609,128.416703,033-682-0088
체험,투개더파크,강원 춘천시 남산면 방하리 198-7,,37.7902318,127.5262516,031-580-8114
동물병원,튼튼동물병원,강원 철원군 갈말읍 문혜리 681-16,,38.17861259,127.3286521,033-452-9124
관광지,파로호 하트섬,강원 화천군 간동면 도송리 481,,38.064636,127.7952162,
식음료,파머스가든,강원 춘천시 신북읍 율문리 37-77,강원 춘천시 신북읍 신샘밭로 380,37.9252032,127.7530231,033-241-0505
숙박지,파인트리 캠핑장,강원 정선군 남면 낙동리 498-1,강원 정선군 남면 광락로 349-30,37.31613816,128.6937205,
숙박지,파인힐 애견펜션,강원 강릉시 연곡면 방내리 180-1,강원 강릉시 연곡면 동해대로 4371-27,37.86920213,128.831634,070-7764-7258
동물병원,패밀리동물병원,강원 원주시 반곡동 1875-4,강원 원주시 봄마중길 2-4,37.3255392,127.9812413,033-743-8119
식음료,패티김 강릉,"강원 강릉시 난설헌로 201, 1층",,37.79121422,128.9117993,0507-1333-0941
식음료,퍼피쿵,강원 춘천시 퇴계동 802-5,강원 춘천시 안마산로 34-17,37.8567333,127.7202741,
숙박지,페트리코펜션,강원 양양군 손양면 선사유적로 244,,38.05310851,128.6844071,
숙박지,펜션 숲속하얀뜰,강원 평창군 봉평면 면온리 697-17,강원 평창군 봉평면 석이바우길 92-28,37.57531188,128.3535066,
숙박지,펜션아이리스,강원 홍천군 서면 굴업리 280,강원 홍천군 서면 굴업솔골길 60-9,37.62156995,127.6751366,
숙박지,펜션오라,강원 삼척시 근덕면 삼척로 2095,,37.28338089,129.3135086,
숙박지,펜션지아니,강원 강릉시 강동면 정동진리 146-5,강원 강릉시 강동면 정동3길 32-11,37.6859321,129.0343021,
식음료,펫타운,강원 원주시 판부면 금대리 893-2,강원 원주시 판부면 치악로 1071,37.28836593,127.9947534,
관광지,펫힐링달빛동물원,강원 영월군 남면 연당리 662-2,,37.1745754,128.4017911,033-373-0995
체험,평창 송어축제,강원 평창군 진부면 하진부리 325,강원 평창군 진부면 경강로 3562,37.63321778,128.5570396,033-336-4000
숙박지,평창듀오애견수영장계곡펜션,강원 평창군 방림면 계촌리 2223-2,강원 평창군 방림면 감동지길 116-4,37.47929352,128.2737453,
관광지,평화의 댐,강원 화천군 화천읍 동촌리 2921,강원 화천군 화천읍 평화로 3481-18,38.21366506,127.8461595,033-480-1512
숙박지,평화의댐오토캠핑장,강원 화천군 화천읍 동촌리 2905-3,강원 화천군 화천읍 비수구미길 145-145,38.20652873,127.8501068,033-440-4533
식음료,풀내음,강원 평창군 봉평면 원길리 763-5,강원 평창군 봉평면 메밀꽃길 13,37.61485282,128.3712418,033-335-0034
식음료,풍어횟집,강원 고성군 죽왕면 오호리 29-6,강원 고성군 죽왕면 심층수길 40-12,38.32720068,128.5290913,033-632-8582
숙박지,프렌즈애견펜션,강원 강릉시 안현동 506-1,강릉시 하남길 117-4,37.81174613,128.880543,
식음료,프로방스 카페,강원 철원군 갈말읍 군탄리 1749-2,강원 철원군 갈말읍 순담길 299,38.18572275,127.3005054,
숙박지,프로방스 펜션,강원 정선군 남면 무릉리 739-14,강원 정선군 남면 자뭇골길 212,37.24513849,128.7606051,
식음료,피빙,강원 양양군 현남면 시변리 38-9,강원 양양군 현남면 인구중앙길 79,37.97152628,128.7594613,
식음료,피앤비코,,강원 강릉시 창해로14번길 22-1,37.77244957,128.9473991,033-651-2600
식음료,피자씨,강원 속초시 중앙로 300 (영랑동 131-153),,38.21573279,128.5946511,0507-1359-1064
동물병원,필동물병원,강원 동해시 천곡동 1077-5,강원 동해시 한섬로 61-1,37.52051987,129.1108721,033-534-7178
동물병원,하나동물병원,강원 춘천시 후평동 686-3,강원 춘천시 춘천로 287-1,37.88106006,127.7450038,033-243-7511
관광지,하늘길,강원 정선군 고한읍 고한리 424,강원 정선군 고한읍 고한7길 399,37.17423577,128.8425632,1588-7789
식음료,하루숯불생고기,강원 춘천시 석사동 34-6,강원 춘천시 세실로 100-32,37.86591971,127.7618478,033-261-6655
동물병원,하슬라동물병원,강원 강릉시 교동 1907-2,강원 강릉시 하슬라로 131,37.76179247,128.8733166,033-645-7585
체험,하슬라아트월드,강원 강릉시 강동면 정동진리 524-25,강원 강릉시 강동면 율곡로 1441,37.70545629,129.0078449,033-644-9411
숙박지,하얀멍이 애견펜션,강원 양양군 서면 장승리 174,강원 양양군 서면 들돌길 207,38.08286387,128.5722685,
숙박지,하얀여울캠프,강원 영월군 무릉도원면 법흥리 37-11,강원 영월군 무릉도원면 무릉법흥로 932,37.34028551,128.2805875,
숙박지,하이봉자,강원 원주시 소초면 흥양리 972-1,강원 원주시 소초면 황골로 269-23,37.3759722,127.9989801,
숙박지,하이원리조트,강원 정선군 고한읍 고한리 산1-239,강원 정선군 고한읍 하이원길 424,37.20721956,128.8368362,1588-7789
숙박지,하이하늘펜션,강원 정선군 고한읍 고한리 239,강원 정선군 고한읍 고토일길 275,37.22169061,128.8628171,
숙박지,하조대아름들펜션,강원 양양군 현북면 상광정리 671-4,강원 양양군 현북면 검소길 111,38.00799846,128.6917219,033-672-5955
관광지,하조대전망대,강원 양양군 현북면 하광정리 65-4,강원 양양군 현북면 하륜길 54,38.02181654,128.7283714,033-672-5647
관광지,하조대해수욕장,강원 양양군 현북면 하광정리 80-2,,38.02295226,128.7250689,033-672-5647
식음료,하쿠나마타타,강원 삼척시 근덕면 용화리 301-6,강원 삼척시 근덕면 삼척로 2246,37.28823325,129.29906,033-575-7319
관광지,하평해변,강원 강릉시 사천면 사천진리 266-1,강원 강릉시 사천면 진리해변길 155,37.84414459,128.8719605,033-660-3658
숙박지,학마을캠핑장,강원 철원군 동송읍 관우리 374-1,강원 철원군 동송읍 도피동길 72-1,38.23609437,127.2211165,
숙박지,학조리샘말펜션,강원 양구군 양구읍 학조리 612-1,강원 양구군 양구읍 학안로 97-21,38.06830865,127.9792426,
숙박지,한반도 솔숲쉼터,강원 영월군 한반도면 광전리 598-1,강원 영월군 한반도면 서강로 1159-93,37.25103487,128.3687393,033-375-7935
관광지,한반도섬 자연습지,강원 양구군 양구읍 고대리 647-1,강원 양구군 양구읍 한반도섬길 76,38.1306367,127.9828072,033-480-2251
관광지,한반도지형,강원 영월군 한반도면 옹정리 466-10,강원 영월군 한반도면 선암길 66-9,37.22256105,128.3468696,1577-0545
숙박지,한반도캠핑장,강원 영월군 한반도면 후탄리 555-2,강원 영월군 한반도면 후탄로 826,37.2152567,128.3562487,
숙박지,한화리조트 평창,강원 평창군 봉평면 태기로 228-33,,37.57876967,128.3319561,
식음료,해녀횟집,강원 양양군 현남면 남애리 6-51,강원 양양군 현남면 매바위길 163,37.94562035,128.7850447,033-671-7474
동물병원,해든동물병원,"강원 원주시 천매봉길 21, 1층 (단구동)",,37.32205023,127.9437881,033-762-9944
숙박지,해마루 펜션,강원 삼척시 근덕면 장호리 224,강원 삼척시 근덕면 장호1길27,37.28502643,129.3127314,1833-9306
숙박지,해피리버펜션,강원 춘천시 남산면 산수리 455-4,강원 춘천시 남산면 홍천강변길 410,37.6828358,127.6497104,
숙박지,해피몽펜션,강원 강릉시 성산면 보광리 881-2,강릉시 성산면 삼왕길 171-13,37.7563505,128.7942527,
관광지,해피플레이스애견비치,강원 양양군 현북면 잔교리 41-10,강원 양양군 현북면 동해대로 1242,38.00446935,128.7323468,
관광지,행구수변공원,강원 원주시 행구동 1029,강원 원주시 행구로 362,37.34238325,127.996726,033-742-2111
동물병원,행복드림동물병원,강원 원주시 단계동 1107-7,강원 원주시 천사로 23-17,37.34980571,127.9276904,033-744-7585
동물병원,행복한종합동물병원,강원 강릉시 옥천동 166,강원 강릉시 경강로 2142,37.75729132,128.9002933,033-648-7533
관광지,허브나라농원,강원 평창군 봉평면 흥정리 302-7,강원 평창군 봉평면 흥정계곡길 225,37.63580936,128.3426513,033-335-2902
숙박지,헤이도그 애견펜션,강원 횡성군 강림면 태종로 567,,37.33592996,128.0979774,
식음료,헤이요거,,강원 춘천시 우석로4번길 63,37.86223278,127.7487382,0507-1329-1633
숙박지,헤이춘천,강원 춘천시 효자동 712-12,강원 춘천시 남춘로 49,37.86535614,127.7321769,033-243-5566
식음료,헬로우씨카페,강원 고성군 죽왕면 문암진리 134-70,강원 고성군 죽왕면 괘진길 53-11,38.29628202,128.5474508,
동물병원,현대동물병원,강원 춘천시 후평동 677-21,강원 춘천시 춘천로 267,37.88002758,127.7429682,033-256-7582
식음료,현대아바이순대,강원 속초시 금호동 473-110,강원 속초시 중앙로129번길 35,38.20423773,128.5894,033-633-6879
동물병원,현대종합동물병원,"강원 원주시 지정면 신지정로 153-15, 1층",,37.3738171,127.879612,033-763-7509
동물병원,혜인종합동물병원,,강원 원주시 나비허리길 60 (단구동),37.32330546,127.9587541,033-766-1475
동물병원,호박동물병원,강원 속초시 청호동 1354-11,강원 속초시 설악금강대교로 20,38.19180999,128.59523,033-636-1114
숙박지,호텔인터불고 원주,강원 원주시 동부순환로 200 호텔인터불고 원주,,37.33244247,127.9744601,033-769-8114
숙박지,홀리데이인 스위트 알펜시아,강원 평창군 대관령면 솔봉로 325,,37.65925417,128.6840107,033-339-0000
식음료,홍시,강원 홍천군 서면 한서로 1774,,37.63570342,127.6486139,0507-1315-0339
식음료,홍천원조화로구이,강원 홍천군 서면 굴업리 361-7,강원 홍천군 서면 한서로 2167,37.61492505,127.6741523,033-432-8592
동물병원,홍현관동물병원,강원 태백시 황지동 80-7,강원 태백시 황지로 80,37.16590301,128.991833,033-552-9117
식음료,화이어드커피,강원 춘천시 동내면 순환대로 632 1층,,37.83984404,127.7621803,
숙박지,화이트샌드펜션,강원 양양군 현남면 시변리 33-15,강원 양양군 현남면 새나루길 31,37.97200617,128.7618611,
식음료,화이트크로우 탭하우스,,강원 강릉시 관솔길 12번길 14-3,37.73997682,128.8676215,033-645-7179
식음료,화이트클라우드,강원 원주시 판부면 서곡리 1375-1,강원 원주시 판부면 백운정윗길 27,37.28883077,127.9375892,033-765-0999
관광지,화진포의 성 김일성 별장,강원 고성군 거진읍 화포리 530-1,강원 고성군 거진읍 화진포길 280,38.47250515,128.4430602,033-680-3363
숙박지,화천써비스펜션,강원 화천군 하남면 거례리 265,강원 화천군 하남면 춘화로 2861-10,38.06216819,127.6982912,
식음료,화천써비스허브정원카페,강원 화천군 하남면 거례리 265,강원 화천군 하남면 춘화로 2861-10,38.06216819,127.6982912,033-442-4660
식음료,황가네숯불꾸이꾸이,강원 영월군 영월읍 영흥리 904-1,강원 영월군 영월읍 중앙로 84,37.18327211,128.4730454,033-372-9182
숙박지,황토민박펜션,강원 동해시 지흥동 321-6,강원 동해시 분토길 188-7,37.50874203,129.0957221,
식음료,횡성고향한우,강원 원주시 지정면 보통리 166,강원 원주시 지정면 질마재로 49,37.35020892,127.87782,033-747-8658
숙박지,횡성로그캐빈팬션,,강원 횡성군 둔내면 고원로 425번길 33,37.49818186,128.2428236,
관광지,횡성호수길5구간,강원 횡성군 갑천면 구방리 512,강원 횡성군 갑천면 태기로구방5길 40,37.54555631,128.0670139,033-345-9657
숙박지,휘닉스평창리조트,강원 평창군 봉평면 면온리 1095-1,강원 평창군 봉평면 태기로 174,37.58246341,128.3268678,1577-0069
체험,휘바핀란드,강원 홍천군 서면 두미리 631-6,강원 홍천군 서면 팔봉산로 368,37.66899802,127.6585074,033-433-0288
관광지,휴휴암,강원 양양군 현남면 광진리 1,강원 양양군 현남면 광진2길 3-16,37.96106629,128.7673675,"033-671-0093, 033-671-0094"
식음료,흰다정,강원 속초시 동명동 450-238,강원 속초시 수복로 248,38.20930874,128.5913445,070-8830-9322
숙박지,힐리언스 선마을,강원 홍천군 서면 중방대리 7,강원 홍천군 서면 종자산길 122,37.65154223,127.6303412,1588-9983
숙박지,힐링캠프 애견동반 펜션,강원 삼척시 근덕면 용화리 169,강원 삼척시 근덕면 용화안길 14,37.28871618,129.302706,0505-356-9606
숙박지,힐링하시개,강원 평창군 봉평면 무이리 1116-1,강원 평창군 봉평면 안흥동길 132-7,37.58625753,128.3082477,
